[
  {
    "displayName": "Siam Paragon",
    "slug": "siam-paragon",
    "address": "991 Rama I Rd, Pathum Wan, Bangkok 10330",
    "district": "Pathum Wan",
    "location": {"lat": 13.7466, "lng": 100.5347},
    "phone": "",
    "website": "",
    "source": "seed-manual"
  },
  {
    "displayName": "CentralWorld",
    "slug": "centralworld",
    "address": "999/9 Rama I Rd, Pathum Wan, Bangkok 10330",
    "district": "Pathum Wan",
    "location": {"lat": 13.7460, "lng": 100.5390},
    "phone": "",
    "website": "",
    "source": "seed-manual"
  },
  {
    "displayName": "MBK Center",
    "slug": "mbk-center",
    "address": "444 Phaya Thai Rd, Wang Mai, Pathum Wan, Bangkok 10330",
    "district": "Pathum Wan",
    "location": {"lat": 13.7446, "lng": 100.5296},
    "phone": "",
    "website": "",
    "source": "seed-manual"
  },
  {
    "displayName": "ICONSIAM",
    "slug": "iconsiam",
    "address": "299 Charoen Nakhon Rd, Khlong Ton Sai, Khlong San, Bangkok 10600",
    "district": "Khlong San",
    "location": {"lat": 13.7261, "lng": 100.5100},
    "phone": "",
    "website": "",
    "source": "seed-manual"
  },
  {
    "displayName": "Terminal 21 Asok",
    "slug": "terminal-21-asok",
    "address": "2,88 Sukhumvit Rd, Khlong Toei Nuea, Watthana, Bangkok 10110",
    "district": "Watthana",
    "location": {"lat": 13.7369, "lng": 100.5603},
    "phone": "",
    "website": "",
    "source": "seed-manual"
  },
  {
    "displayName": "The Emporium",
    "slug": "the-emporium",
    "address": "622 Sukhumvit Rd, Khlong Tan, Khlong Toei, Bangkok 10110",
    "district": "Khlong Toei",
    "location": {"lat": 13.7300, "lng": 100.5690},
    "phone": "",
    "website": "",
    "source": "seed-manual"
  },
  {
    "displayName": "EmQuartier",
    "slug": "emquartier",
    "address": "693, 695 Sukhumvit Rd, Khlong Tan Nuea, Watthana, Bangkok 10110",
    "district": "Watthana",
    "location": {"lat": 13.7308, "lng": 100.5695},
    "phone": "",
    "website": "",
    "source": "seed-manual"
  },
  {
    "displayName": "Central Plaza Ladprao",
    "slug": "central-plaza-ladprao",
    "address": "1693 Phahon Yothin Rd, Chatuchak, Bangkok 10900",
    "district": "Chatuchak",
    "location": {"lat": 13.8150, "lng": 100.5600},
    "phone": "",
    "website": "",
    "source": "seed-manual"
  },
  {
    "displayName": "Central Plaza Grand Rama 9",
    "slug": "central-plaza-grand-rama-9",
    "address": "9/9 Rama IX Rd, Huai Khwang, Bangkok 10310",
    "district": "Huai Khwang",
    "location": {"lat": 13.7588, "lng": 100.5662},
    "phone": "",
    "website": "",
    "source": "seed-manual"
  },
  {
    "displayName": "Mega Bangna",
    "slug": "mega-bangna",
    "address": "39 Moo 6, Bang Na-Trat Rd, Bang Kaeo, Bang Phli, Samut Prakan 10540",
    "district": "Bang Phli",
    "location": {"lat": 13.6469, "lng": 100.6800},
    "phone": "",
    "website": "",
    "source": "seed-manual"
  },
  {
    "displayName": "Central Plaza Pinklao",
    "slug": "central-plaza-pinklao",
    "address": "7/1 Borommaratchachonnani Rd, Arun Amarin, Bangkok 10700",
    "district": "Bang Phlat",
    "location": {"lat": 13.7787, "lng": 100.4765},
    "phone": "",
    "website": "https://www.centralpattana.co.th/branches/central-pinklao",
    "hours": {
      "mon": "10:00-22:00",
      "tue": "10:00-22:00",
      "wed": "10:00-22:00",
      "thu": "10:00-22:00",
      "fri": "10:00-22:00",
      "sat": "10:00-22:00",
      "sun": "10:00-22:00"
    },
    "source": "seed-manual"
  },
  {
    "displayName": "Central Plaza Rama 2",
    "slug": "central-plaza-rama-2",
    "address": "128 Rama II Rd, Samae Dam, Bang Khun Thian, Bangkok 10150",
    "district": "Bang Khun Thian",
    "location": {"lat": 13.6513, "lng": 100.4343},
    "phone": "",
    "website": "https://www.centralpattana.co.th/branches/central-rama-2",
    "hours": {
      "mon": "10:00-22:00",
      "tue": "10:00-22:00",
      "wed": "10:00-22:00",
      "thu": "10:00-22:00",
      "fri": "10:00-22:00",
      "sat": "10:00-22:00",
      "sun": "10:00-22:00"
    },
    "source": "seed-manual"
  },
  {
    "displayName": "Central Plaza Rama 3",
    "slug": "central-plaza-rama-3",
    "address": "79 Ratchadaphisek Rd, Chong Nonsi, Yan Nawa, Bangkok 10120",
    "district": "Yan Nawa",
    "location": {"lat": 13.6985, "lng": 100.5397},
    "phone": "",
    "website": "https://www.centralpattana.co.th/branches/central-rama-3",
    "hours": {
      "mon": "10:00-22:00",
      "tue": "10:00-22:00",
      "wed": "10:00-22:00",
      "thu": "10:00-22:00",
      "fri": "10:00-22:00",
      "sat": "10:00-22:00",
      "sun": "10:00-22:00"
    },
    "source": "seed-manual"
  },
  {
    "displayName": "Central Ramintra",
    "slug": "central-ramintra",
    "address": "109 Ramintra Rd, Anusawari, Bang Khen, Bangkok 10220",
    "district": "Bang Khen",
    "location": {"lat": 13.8711, "lng": 100.6090},
    "phone": "",
    "website": "https://www.centralpattana.co.th/branches/central-ramintra",
    "hours": {
      "mon": "10:00-22:00",
      "tue": "10:00-22:00",
      "wed": "10:00-22:00",
      "thu": "10:00-22:00",
      "fri": "10:00-22:00",
      "sat": "10:00-22:00",
      "sun": "10:00-22:00"
    },
    "source": "seed-manual"
  },
  {
    "displayName": "Central WestGate",
    "slug": "central-westgate",
    "address": "199,199/1,199/2 Moo 6, Sao Thong Hin, Bang Yai, Nonthaburi 11140",
    "district": "Bang Yai",
    "location": {"lat": 13.8766, "lng": 100.4117},
    "phone": "",
    "website": "https://www.centralpattana.co.th/branches/central-westgate",
    "hours": {
      "mon": "10:00-22:00",
      "tue": "10:00-22:00",
      "wed": "10:00-22:00",
      "thu": "10:00-22:00",
      "fri": "10:00-22:00",
      "sat": "10:00-22:00",
      "sun": "10:00-22:00"
    },
    "source": "seed-manual"
  },
  {
    "displayName": "Central Festival EastVille",
    "slug": "central-festival-eastville",
    "address": "69,69/1-3 Prasert-Manukitch Rd, Lat Phrao, Bangkok 10230",
    "district": "Lat Phrao",
    "location": {"lat": 13.8106, "lng": 100.6143},
    "phone": "",
    "website": "https://www.centralpattana.co.th/branches/central-eastville",
    "hours": {
      "mon": "10:00-22:00",
      "tue": "10:00-22:00",
      "wed": "10:00-22:00",
      "thu": "10:00-22:00",
      "fri": "10:00-22:00",
      "sat": "10:00-22:00",
      "sun": "10:00-22:00"
    },
    "source": "seed-manual"
  },
  {
    "displayName": "The Mall Bangkapi",
    "slug": "the-mall-bangkapi",
    "address": "3522 Lat Phrao Rd, Khlong Chan, Bang Kapi, Bangkok 10240",
    "district": "Bang Kapi",
    "location": {"lat": 13.7649, "lng": 100.6435},
    "phone": "",
    "website": "https://www.majoritybrands.com/the-mall-bangkapi",
    "hours": {
      "mon": "10:00-22:00",
      "tue": "10:00-22:00",
      "wed": "10:00-22:00",
      "thu": "10:00-22:00",
      "fri": "10:00-22:00",
      "sat": "10:00-22:00",
      "sun": "10:00-22:00"
    },
    "source": "seed-manual"
  },
  {
    "displayName": "The Mall Ngamwongwan",
    "slug": "the-mall-ngamwongwan",
    "address": "30-39 Ngam Wong Wan Rd, Bang Khen, Mueang Nonthaburi, Nonthaburi 11000",
    "district": "Mueang Nonthaburi",
    "location": {"lat": 13.8607, "lng": 100.5362},
    "phone": "",
    "website": "https://www.majoritybrands.com/the-mall-ngamwongwan",
    "hours": {
      "mon": "10:00-22:00",
      "tue": "10:00-22:00",
      "wed": "10:00-22:00",
      "thu": "10:00-22:00",
      "fri": "10:00-22:00",
      "sat": "10:00-22:00",
      "sun": "10:00-22:00"
    },
    "source": "seed-manual"
  },
  {
    "displayName": "Future Park Rangsit",
    "slug": "future-park-rangsit",
    "address": "94 Phahonyothin Rd, Prachathipat, Thanyaburi, Pathum Thani 12130",
    "district": "Thanyaburi",
    "location": {"lat": 13.9896, "lng": 100.6171},
    "phone": "",
    "website": "https://www.futurepark.co.th/",
    "hours": {
      "mon": "10:00-22:00",
      "tue": "10:00-22:00",
      "wed": "10:00-22:00",
      "thu": "10:00-22:00",
      "fri": "10:00-22:00",
      "sat": "10:00-22:00",
      "sun": "10:00-22:00"
    },
    "source": "seed-manual"
  },
  {
    "displayName": "Seacon Square Srinakarin",
    "slug": "seacon-square-srinakarin",
    "address": "55 Srinagarindra Rd, Nong Bon, Prawet, Bangkok 10250",
    "district": "Prawet",
    "location": {"lat": 13.6940, "lng": 100.6468},
    "phone": "",
    "website": "https://www.seaconsquare.com/",
    "hours": {
      "mon": "10:00-22:00",
      "tue": "10:00-22:00",
      "wed": "10:00-22:00",
      "thu": "10:00-22:00",
      "fri": "10:00-22:00",
      "sat": "10:00-22:00",
      "sun": "10:00-22:00"
    },
    "source": "seed-manual"
  }
]
